uri	name	state	lat	long
http://vivo.school.edu/individual/1013029227	Richmond	Virginia	37.5314	-77.476
http://vivo.school.edu/individual/1035662568	Olathe	Kansas	38.8843	-94.8188
http://vivo.school.edu/individual/1042241611	Pasadena	California	34.1606	-118.1396
http://vivo.school.edu/individual/1077270824	Fort Worth	Texas	32.7795	-97.3463
http://vivo.school.edu/individual/1084060438	Burbank	California	34.189	-118.3249
http://vivo.school.edu/individual/1124625818	Riverside	California	33.9381	-117.3932
http://vivo.school.edu/individual/1220574291	Norfolk	Virginia	36.923	-76.2446
http://vivo.school.edu/individual/1303942692	Birmingham	Alabama	33.5274	-86.799
http://vivo.school.edu/individual/1331233848	Shreveport	Louisiana	32.467	-93.7927
http://vivo.school.edu/individual/1340606941	Boston	Massachusetts	42.332	-71.0202
http://vivo.school.edu/individual/1377748965	Escondido	California	33.1336	-117.0732
http://vivo.school.edu/individual/1418499808	West Jordan	Utah	40.6023	-112.001
http://vivo.school.edu/individual/1419851875	Athens	Georgia	33.9496	-83.3701
http://vivo.school.edu/individual/1432115235	Washington	District of Columbia	38.9041	-77.0171
http://vivo.school.edu/individual/1458414250	Oxnard	California	34.2023	-119.2046
http://vivo.school.edu/individual/1502558251	Corona	California	33.8624	-117.5639
http://vivo.school.edu/individual/1529203483	High Point	North Carolina	35.9855	-79.9902
http://vivo.school.edu/individual/1534940746	Dayton	Ohio	39.7774	-84.1996
http://vivo.school.edu/individual/1624419176	Seattle	Washington	47.6205	-122.3509
http://vivo.school.edu/individual/1651872505	Tempe	Arizona	33.3884	-111.9318
http://vivo.school.edu/individual/1658862358	Bellevue	Washington	47.5978	-122.1565
http://vivo.school.edu/individual/1703531238	San Bernardino	California	34.1393	-117.2953
http://vivo.school.edu/individual/171064840	Frisco	Texas	33.151	-96.8193
http://vivo.school.edu/individual/172390843	Hialeah	Florida	25.8699	-80.3029
http://vivo.school.edu/individual/1761294392	Alexandria	Virginia	38.8183	-77.082
http://vivo.school.edu/individual/1775577766	Mobile	Alabama	30.6684	-88.1002
http://vivo.school.edu/individual/1835282518	Henderson	Nevada	36.0122	-115.0375
http://vivo.school.edu/individual/1913954549	Yonkers	New York	40.9459	-73.8674
http://vivo.school.edu/individual/1964478700	Independence	Missouri	39.0853	-94.3513
http://vivo.school.edu/individual/1991521874	Boulder	Colorado	40.0175	-105.2797
http://vivo.school.edu/individual/2140252468	Davenport	Iowa	41.5541	-90.604
http://vivo.school.edu/individual/2224171361	Newark	New Jersey	40.7242	-74.1726
http://vivo.school.edu/individual/2258084070	Indianapolis	Indiana	39.7767	-86.1459
http://vivo.school.edu/individual/2361138336	Joliet	Illinois	41.5181	-88.1584
http://vivo.school.edu/individual/2373895596	Toledo	Ohio	41.6641	-83.5819
http://vivo.school.edu/individual/241167267	Rialto	California	34.1118	-117.3883
http://vivo.school.edu/individual/2462439372	Durham	North Carolina	35.981	-78.9056
http://vivo.school.edu/individual/2501780635	Cincinnati	Ohio	39.1399	-84.5064
http://vivo.school.edu/individual/2609197154	Warren	Michigan	42.4929	-83.025
http://vivo.school.edu/individual/2655826980	North Las Vegas	Nevada	36.283	-115.0893
http://vivo.school.edu/individual/2669041271	Madison	Wisconsin	43.0878	-89.4301
http://vivo.school.edu/individual/2701933249	Waco	Texas	31.5601	-97.186
http://vivo.school.edu/individual/2760389568	Carolina	Puerto Rico	18.381	-65.957
http://vivo.school.edu/individual/2825087831	West Palm Beach	Florida	26.7483	-80.1266
http://vivo.school.edu/individual/2836854420	Antioch	California	37.9775	-121.7976
http://vivo.school.edu/individual/2868665341	Lincoln	Nebraska	40.809	-96.6804
http://vivo.school.edu/individual/2904574350	Long Beach	California	33.8091	-118.1553
http://vivo.school.edu/individual/2936129424	Rochester	Minnesota	44.0154	-92.4772
http://vivo.school.edu/individual/2973458699	Waterbury	Connecticut	41.5585	-73.0367
http://vivo.school.edu/individual/3005705945	Clearwater	Florida	27.9795	-82.7663
http://vivo.school.edu/individual/3044957346	Miami Gardens	Florida	25.9489	-80.2436
http://vivo.school.edu/individual/3096552200	Carrollton	Texas	32.9884	-96.8998
http://vivo.school.edu/individual/3163697429	Santa Clara	California	37.3646	-121.9679
http://vivo.school.edu/individual/3200099588	Bridgeport	Connecticut	41.1874	-73.1957
http://vivo.school.edu/individual/3202254249	Thousand Oaks	California	34.1933	-118.8742
http://vivo.school.edu/individual/3233536063	West Valley City	Utah	40.6885	-112.0118
http://vivo.school.edu/individual/3248325876	Ann Arbor	Michigan	42.2756	-83.7313
http://vivo.school.edu/individual/3289835508	Charlotte	North Carolina	35.2087	-80.8307
http://vivo.school.edu/individual/3338883434	Columbia	Missouri	38.9479	-92.3261
http://vivo.school.edu/individual/338334941	Spokane	Washington	47.6736	-117.4166
http://vivo.school.edu/individual/3404850411	Downey	California	33.9382	-118.1309
http://vivo.school.edu/individual/3499934445	Sunnyvale	California	37.3858	-122.0263
http://vivo.school.edu/individual/3499957221	Ontario	California	34.0395	-117.6088
http://vivo.school.edu/individual/3528041944	Cary	North Carolina	35.7821	-78.8141
http://vivo.school.edu/individual/3528600136	Stamford	Connecticut	41.0799	-73.546
http://vivo.school.edu/individual/3541762862	Port St. Lucie	Florida	27.281	-80.3838
http://vivo.school.edu/individual/3568944010	Pittsburgh	Pennsylvania	40.4398	-79.9766
http://vivo.school.edu/individual/361430505	Baltimore	Maryland	39.3002	-76.6105
http://vivo.school.edu/individual/3639784891	Santa Rosa	California	38.4468	-122.7061
http://vivo.school.edu/individual/3663757509	Wichita	Kansas	37.6907	-97.3427
http://vivo.school.edu/individual/3672875471	Miramar	Florida	25.977	-80.3358
http://vivo.school.edu/individual/3677198307	Sterling Heights	Michigan	42.5812	-83.0303
http://vivo.school.edu/individual/3712188294	Oakland	California	37.7699	-122.2256
http://vivo.school.edu/individual/3764814631	Tucson	Arizona	32.1543	-110.8711
http://vivo.school.edu/individual/3854357846	San Francisco	California	37.7751	-122.4193
http://vivo.school.edu/individual/3870066966	Grand Prairie	Texas	32.6842	-97.021
http://vivo.school.edu/individual/3872903623	Phoenix	Arizona	33.5722	-112.088
http://vivo.school.edu/individual/3873462505	Fargo	North Dakota	46.8652	-96.829
http://vivo.school.edu/individual/387668109	Oklahoma City	Oklahoma	35.4671	-97.5137
http://vivo.school.edu/individual/3897858313	Newport News	Virginia	37.076	-76.5217
http://vivo.school.edu/individual/3905958668	Huntsville	Alabama	34.7843	-86.539
http://vivo.school.edu/individual/3910290067	Elk Grove	California	38.4144	-121.3849
http://vivo.school.edu/individual/3996845428	Coral Springs	Florida	26.2708	-80.2593
http://vivo.school.edu/individual/4073046212	Victorville	California	34.5277	-117.3536
http://vivo.school.edu/individual/4073507608	Charleston	South Carolina	32.8179	-79.9589
http://vivo.school.edu/individual/4135667386	Inglewood	California	33.9561	-118.3443
http://vivo.school.edu/individual/4153480226	Kent	Washington	47.3853	-122.2169
http://vivo.school.edu/individual/4160294944	Jackson	Mississippi	32.3158	-90.2128
http://vivo.school.edu/individual/4163402642	Odessa	Texas	31.8804	-102.3434
http://vivo.school.edu/individual/4164078460	Peoria	Arizona	33.7877	-112.3111
http://vivo.school.edu/individual/4167443820	New York City	New York	40.6643	-73.9385
http://vivo.school.edu/individual/4177773942	Glendale	Arizona	33.5331	-112.1899
http://vivo.school.edu/individual/4186168396	New Orleans	Louisiana	30.0686	-89.939
http://vivo.school.edu/individual/4222004017	Gilbert	Arizona	33.3102	-111.7422
http://vivo.school.edu/individual/42570644	Centennial	Colorado	39.5906	-104.8691
http://vivo.school.edu/individual/4283168819	Hartford	Connecticut	41.766	-72.6833
http://vivo.school.edu/individual/4296890488	Fullerton	California	33.8857	-117.928
http://vivo.school.edu/individual/4303640831	Knoxville	Tennessee	35.9709	-83.9465
http://vivo.school.edu/individual/4352456192	Wichita Falls	Texas	33.9067	-98.5259
http://vivo.school.edu/individual/4489880380	Portland	Oregon	45.537	-122.65
http://vivo.school.edu/individual/450575309	El Paso	Texas	31.8484	-106.427
http://vivo.school.edu/individual/4512225208	Westminster	Colorado	39.8822	-105.0644
http://vivo.school.edu/individual/4550618268	Norman	Oklahoma	35.2406	-97.3453
http://vivo.school.edu/individual/45862700	Corpus Christi	Texas	27.7543	-97.1734
http://vivo.school.edu/individual/4592547501	Chattanooga	Tennessee	35.0665	-85.2471
http://vivo.school.edu/individual/4596648121	Cleveland	Ohio	41.4781	-81.6795
http://vivo.school.edu/individual/4602310604	Colorado Springs	Colorado	38.8673	-104.7607
http://vivo.school.edu/individual/4649920832	Pompano Beach	Florida	26.2426	-80.129
http://vivo.school.edu/individual/4698870108	South Bend	Indiana	41.6769	-86.269
http://vivo.school.edu/individual/472859945	Hayward	California	37.6281	-122.1063
http://vivo.school.edu/individual/4734165530	Gainesville	Florida	29.6788	-82.3459
http://vivo.school.edu/individual/4750427675	Pembroke Pines	Florida	26.0212	-80.3404
http://vivo.school.edu/individual/4785761433	Buffalo	New York	42.8925	-78.8597
http://vivo.school.edu/individual/4787288958	Miami	Florida	25.7752	-80.2086
http://vivo.school.edu/individual/4814069853	Chandler	Arizona	33.2829	-111.8549
http://vivo.school.edu/individual/4902804673	Vallejo	California	38.1079	-122.2639
http://vivo.school.edu/individual/4952079886	Salinas	California	36.6902	-121.6337
http://vivo.school.edu/individual/4966043613	Baton Rouge	Louisiana	30.4485	-91.1259
http://vivo.school.edu/individual/4984841773	Richardson	Texas	32.9723	-96.7081
http://vivo.school.edu/individual/5078358566	Stockton	California	37.9763	-121.3133
http://vivo.school.edu/individual/508013004	Clarksville	Tennessee	36.5664	-87.3452
http://vivo.school.edu/individual/508049657	Laredo	Texas	27.5477	-99.4869
http://vivo.school.edu/individual/5159539011	Scottsdale	Arizona	33.6687	-111.8237
http://vivo.school.edu/individual/5232330778	Providence	Rhode Island	41.8231	-71.4188
http://vivo.school.edu/individual/5253810657	McAllen	Texas	26.2185	-98.2461
http://vivo.school.edu/individual/5272548969	San Jose	California	37.2969	-121.8193
http://vivo.school.edu/individual/5274350332	Mesquite	Texas	32.7639	-96.5924
http://vivo.school.edu/individual/5375648494	Round Rock	Texas	30.5237	-97.6674
http://vivo.school.edu/individual/5428781084	Everett	Washington	48.0033	-122.1742
http://vivo.school.edu/individual/5437832045	Brownsville	Texas	26.0183	-97.4538
http://vivo.school.edu/individual/5525784336	Tallahassee	Florida	30.4551	-84.2534
http://vivo.school.edu/individual/5647956171	Nashville	Tennessee	36.1718	-86.785
http://vivo.school.edu/individual/5680456181	Grand Rapids	Michigan	42.9612	-85.6556
http://vivo.school.edu/individual/5687847290	Hollywood	Florida	26.0311	-80.1646
http://vivo.school.edu/individual/5713889962	Tacoma	Washington	47.2522	-122.4598
http://vivo.school.edu/individual/5723846574	Roseville	California	38.7657	-121.3032
http://vivo.school.edu/individual/5764914094	Irving	Texas	32.8577	-96.97
http://vivo.school.edu/individual/5857135166	Glendale	California	34.1814	-118.2458
http://vivo.school.edu/individual/586904767	Thornton	Colorado	39.918	-104.9454
http://vivo.school.edu/individual/5884071434	Worcester	Massachusetts	42.2695	-71.8078
http://vivo.school.edu/individual/5888947905	Amarillo	Texas	35.1978	-101.8287
http://vivo.school.edu/individual/5889321596	Santa Ana	California	33.7365	-117.8826
http://vivo.school.edu/individual/5902255886	Bayamon	Puerto Rico	18.399	-66.156
http://vivo.school.edu/individual/5919689033	Carlsbad	California	33.1239	-117.2828
http://vivo.school.edu/individual/593339900	Memphis	Tennessee	35.1035	-89.9785
http://vivo.school.edu/individual/5945550118	Rochester	New York	43.1699	-77.6169
http://vivo.school.edu/individual/5955454492	Murfreesboro	Tennessee	35.8522	-86.4161
http://vivo.school.edu/individual/5995255670	Arlington	Texas	32.7007	-97.1247
http://vivo.school.edu/individual/6096370558	Minneapolis	Minnesota	44.9633	-93.2683
http://vivo.school.edu/individual/6123345692	Fayetteville	North Carolina	35.0851	-78.9803
http://vivo.school.edu/individual/6144923887	Temecula	California	33.5019	-117.1246
http://vivo.school.edu/individual/6163777630	Montgomery	Alabama	32.3463	-86.2686
http://vivo.school.edu/individual/6255011088	New Haven	Connecticut	41.3108	-72.925
http://vivo.school.edu/individual/626093166	Broken Arrow	Oklahoma	36.0365	-95.781
http://vivo.school.edu/individual/6266739982	Savannah	Georgia	32.0025	-81.1536
http://vivo.school.edu/individual/6335089157	Springfield	Missouri	37.1942	-93.2913
http://vivo.school.edu/individual/6353042059	Des Moines	Iowa	41.5739	-93.6167
http://vivo.school.edu/individual/6371645077	Springfield	Illinois	39.7639	-89.6708
http://vivo.school.edu/individual/6404085520	Garden Grove	California	33.7788	-117.9605
http://vivo.school.edu/individual/6405436230	Vancouver	Washington	45.6372	-122.5965
http://vivo.school.edu/individual/6427320807	Murrieta	California	33.5719	-117.1907
http://vivo.school.edu/individual/643647618	Springfield	Massachusetts	42.1155	-72.54
http://vivo.school.edu/individual/644947315	Lancaster	California	34.6936	-118.1753
http://vivo.school.edu/individual/6449593919	Greensboro	North Carolina	36.0965	-79.8271
http://vivo.school.edu/individual/6521877824	Virginia Beach	Virginia	36.7793	-76.024
http://vivo.school.edu/individual/654527671	Salt Lake City	Utah	40.7785	-111.9314
http://vivo.school.edu/individual/6553781081	North Charleston	South Carolina	32.8853	-80.0169
http://vivo.school.edu/individual/6554894585	Salem	Oregon	44.9237	-123.0231
http://vivo.school.edu/individual/6618437541	Fremont	California	37.4944	-121.9411
http://vivo.school.edu/individual/6657762574	Simi Valley	California	34.2669	-118.7485
http://vivo.school.edu/individual/6682538766	Allentown	Pennsylvania	40.594	-75.4782
http://vivo.school.edu/individual/6694491148	Killeen	Texas	31.0777	-97.732
http://vivo.school.edu/individual/6714525847	Pueblo	Colorado	38.2731	-104.6124
http://vivo.school.edu/individual/6714739681	Columbus	Georgia	32.5102	-84.8749
http://vivo.school.edu/individual/6738384873	Tulsa	Oklahoma	36.1279	-95.9023
http://vivo.school.edu/individual/6743743748	Chicago	Illinois	41.8376	-87.6818
http://vivo.school.edu/individual/6773350532	Lakewood	Colorado	39.6989	-105.1176
http://vivo.school.edu/individual/6795769335	Overland Park	Kansas	38.889	-94.6906
http://vivo.school.edu/individual/6828094823	Austin	Texas	30.3072	-97.756
http://vivo.school.edu/individual/6830353835	Ponce	Puerto Rico	18.011	-66.614
http://vivo.school.edu/individual/6853948038	Elgin	Illinois	42.0396	-88.3217
http://vivo.school.edu/individual/6870847597	Daly City	California	37.7009	-122.465
http://vivo.school.edu/individual/6884133140	Las Cruces	New Mexico	32.3197	-106.7653
http://vivo.school.edu/individual/6906092738	Naperville	Illinois	41.7492	-88.162
http://vivo.school.edu/individual/6913161015	Eugene	Oregon	44.0567	-123.1162
http://vivo.school.edu/individual/6921190470	Oceanside	California	33.2246	-117.3062
http://vivo.school.edu/individual/6936941280	Little Rock	Arkansas	34.7254	-92.3586
http://vivo.school.edu/individual/6938434915	Lansing	Michigan	42.7098	-84.5562
http://vivo.school.edu/individual/704310919	San Diego	California	32.8153	-117.135
http://vivo.school.edu/individual/7076617131	WinstonSalem	North Carolina	36.1033	-80.2606
http://vivo.school.edu/individual/7085131434	Flint	Michigan	43.0244	-83.692
http://vivo.school.edu/individual/7107886370	Denton	Texas	33.2151	-97.1417
http://vivo.school.edu/individual/7142824756	El Cajon	California	32.8017	-116.9605
http://vivo.school.edu/individual/7152404285	Fort Collins	Colorado	40.5482	-105.0648
http://vivo.school.edu/individual/7205458836	Moreno Valley	California	33.9233	-117.2057
http://vivo.school.edu/individual/7254700532	Kansas City	Missouri	39.1252	-94.5511
http://vivo.school.edu/individual/7260068062	Beaumont	Texas	30.0843	-94.1458
http://vivo.school.edu/individual/7267773784	Omaha	Nebraska	41.2647	-96.0419
http://vivo.school.edu/individual/7274629214	Cape Coral	Florida	26.6431	-81.9973
http://vivo.school.edu/individual/7291062693	Albuquerque	New Mexico	35.1056	-106.6474
http://vivo.school.edu/individual/7365934392	Augusta	Georgia	33.3655	-82.0734
http://vivo.school.edu/individual/738404213	Mesa	Arizona	33.4019	-111.7174
http://vivo.school.edu/individual/7398285496	Rancho Cucamonga	California	34.1233	-117.5642
http://vivo.school.edu/individual/7469847082	Boise	Idaho	43.5985	-116.2311
http://vivo.school.edu/individual/7550290235	Manchester	New Hampshire	42.9847	-71.4439
http://vivo.school.edu/individual/7563637725	Plano	Texas	33.0508	-96.7479
http://vivo.school.edu/individual/7613805277	Gresham	Oregon	45.5023	-122.4416
http://vivo.school.edu/individual/7617641894	Berkeley	California	37.8667	-122.2991
http://vivo.school.edu/individual/7627977678	Cambridge	Massachusetts	42.376	-71.1183
http://vivo.school.edu/individual/7629731005	Milwaukee	Wisconsin	43.0633	-87.9667
http://vivo.school.edu/individual/7629961697	Akron	Ohio	41.0805	-81.5214
http://vivo.school.edu/individual/7688025908	Richmond	California	37.953	-122.3594
http://vivo.school.edu/individual/7725670475	Columbus	Ohio	39.9848	-82.985
http://vivo.school.edu/individual/7743680729	Sioux Falls	South Dakota	43.5383	-96.732
http://vivo.school.edu/individual/7800254727	Costa Mesa	California	33.6659	-117.9123
http://vivo.school.edu/individual/780681030	San Buenaventura	California	34.2681	-119.255
http://vivo.school.edu/individual/7810323785	Atlanta	Georgia	33.7629	-84.4227
http://vivo.school.edu/individual/7813068462	Wilmington	North Carolina	34.2092	-77.8858
http://vivo.school.edu/individual/7826434039	Columbia	South Carolina	34.0298	-80.8966
http://vivo.school.edu/individual/7840764573	Kenosha	Wisconsin	42.5822	-87.8456
http://vivo.school.edu/individual/7861665760	Lowell	Massachusetts	42.6389	-71.3221
http://vivo.school.edu/individual/7869611376	Santa Maria	California	34.9332	-120.4438
http://vivo.school.edu/individual/7892981412	Anaheim	California	33.8555	-117.7601
http://vivo.school.edu/individual/7918171471	Jacksonville	Florida	30.337	-81.6613
http://vivo.school.edu/individual/7923775295	Irvine	California	33.6784	-117.7713
http://vivo.school.edu/individual/7993722006	Paterson	New Jersey	40.9147	-74.1628
http://vivo.school.edu/individual/80207877	Pomona	California	34.0586	-117.7613
http://vivo.school.edu/individual/8021020699	Santa Clarita	California	34.4049	-118.5047
http://vivo.school.edu/individual/8027621986	Dallas	Texas	32.7757	-96.7967
http://vivo.school.edu/individual/8077191645	Aurora	Colorado	32.7007	-97.1247
http://vivo.school.edu/individual/8106803247	Fort Lauderdale	Florida	26.1413	-80.1439
http://vivo.school.edu/individual/8107100152	Los Angeles	California	34.0194	-118.4108
http://vivo.school.edu/individual/8147349378	Evansville	Indiana	37.9877	-87.5347
http://vivo.school.edu/individual/8206319535	Cedar Rapids	Iowa	41.967	-91.6778
http://vivo.school.edu/individual/8215360901	Aurora	Illinois	41.7635	-88.2901
http://vivo.school.edu/individual/8231812540	Honolulu	Hawaii	21.3259	-157.8453
http://vivo.school.edu/individual/8236137100	Pasadena	Texas	29.6583	-95.1505
http://vivo.school.edu/individual/8260432512	Detroit	Michigan	42.383	-83.1022
http://vivo.school.edu/individual/8297455126	Louisville	Kentucky	38.1781	-85.6667
http://vivo.school.edu/individual/8336877639	Huntington Beach	California	33.6906	-118.0093
http://vivo.school.edu/individual/845825196	St. Louis	Missouri	38.6357	-90.2446
http://vivo.school.edu/individual/8475681653	Houston	Texas	29.7805	-95.3863
http://vivo.school.edu/individual/8478479872	West Covina	California	34.0559	-117.9099
http://vivo.school.edu/individual/8487273941	Midland	Texas	32.0299	-102.1097
http://vivo.school.edu/individual/8506497381	Orange	California	33.8048	-117.8249
http://vivo.school.edu/individual/8518709076	Denver	Colorado	39.7618	-104.8806
http://vivo.school.edu/individual/8535820454	Saint Paul	Minnesota	44.9489	-93.1039
http://vivo.school.edu/individual/854813789	Syracuse	New York	43.041	-76.1436
http://vivo.school.edu/individual/8590086864	Fairfield	California	38.2568	-122.0397
http://vivo.school.edu/individual/8608284894	St. Petersburg	Florida	27.762	-82.6441
http://vivo.school.edu/individual/865226043	Sacramento	California	38.5666	-121.4686
http://vivo.school.edu/individual/8653838639	Anchorage	Alaska	61.1775	-149.2744
http://vivo.school.edu/individual/8676656591	Surprise	Arizona	33.6706	-112.4527
http://vivo.school.edu/individual/8748079363	Philadelphia	Pennsylvania	40.0094	-75.1333
http://vivo.school.edu/individual/8749196183	Chula Vista	California	32.6277	-117.0152
http://vivo.school.edu/individual/8772730651	Billings	Montana	45.7895	-108.5499
http://vivo.school.edu/individual/8793560056	Green Bay	Wisconsin	44.5207	-87.9842
http://vivo.school.edu/individual/882723854	Elizabeth	New Jersey	40.6663	-74.1935
http://vivo.school.edu/individual/8852076090	Lafayette	Louisiana	30.2116	-92.0314
http://vivo.school.edu/individual/8885090846	Tampa	Florida	27.9701	-82.4797
http://vivo.school.edu/individual/8890278093	Bakersfield	California	35.3212	-119.0183
http://vivo.school.edu/individual/8919594816	Modesto	California	37.6609	-120.9891
http://vivo.school.edu/individual/8921153514	Fort Wayne	Indiana	41.0882	-85.1439
http://vivo.school.edu/individual/8924972642	San Juan	Puerto Rico	18.466	-66.106
http://vivo.school.edu/individual/9043442580	Lexington	Kentucky	38.0402	-84.4584
http://vivo.school.edu/individual/9047599152	El Monte	California	34.0746	-118.0291
http://vivo.school.edu/individual/9072154236	Fontana	California	34.1088	-117.4627
http://vivo.school.edu/individual/9102467840	Jersey City	New Jersey	40.7114	-74.0648
http://vivo.school.edu/individual/9130080321	Torrance	California	33.835	-118.3414
http://vivo.school.edu/individual/9179097327	Kansas City	Kansas	39.1225	-94.7418
http://vivo.school.edu/individual/9208743817	Arvada	Colorado	39.8097	-105.1066
http://vivo.school.edu/individual/922222435	Orlando	Florida	28.4159	-81.2988
http://vivo.school.edu/individual/9242879801	Raleigh	North Carolina	35.8302	-78.6414
http://vivo.school.edu/individual/929146692	McKinney	Texas	33.2012	-96.668
http://vivo.school.edu/individual/9302937772	Concord	California	37.9722	-122.0016
http://vivo.school.edu/individual/9356737409	Topeka	Kansas	39.0362	-95.6948
http://vivo.school.edu/individual/9370174496	Chesapeake	Virginia	36.6794	-76.3018
http://vivo.school.edu/individual/9371224991	Palm Bay	Florida	27.9856	-80.6626
http://vivo.school.edu/individual/9405660604	Lubbock	Texas	33.5665	-101.8867
http://vivo.school.edu/individual/9444564416	Las Vegas	Nevada	36.2277	-115.264
http://vivo.school.edu/individual/9503015221	Hampton	Virginia	37.048	-76.2971
http://vivo.school.edu/individual/9513169610	Garland	Texas	32.9098	-96.6304
http://vivo.school.edu/individual/9556860686	Norwalk	California	33.9069	-118.0834
http://vivo.school.edu/individual/9600480740	San Antonio	Texas	29.4724	-98.5251
http://vivo.school.edu/individual/9602725850	Visalia	California	36.3272	-119.3234
http://vivo.school.edu/individual/9606509895	Provo	Utah	40.2453	-111.6448
http://vivo.school.edu/individual/9775100379	Rockford	Illinois	42.2634	-89.0628
http://vivo.school.edu/individual/9778001401	Fresno	California	36.7827	-119.7945
http://vivo.school.edu/individual/9839673415	Erie	Pennsylvania	42.1166	-80.0735
http://vivo.school.edu/individual/9858409333	Reno	Nevada	39.4745	-119.7765
http://vivo.school.edu/individual/9928239922	Peoria	Illinois	40.7523	-89.6171
http://vivo.school.edu/individual/9956638905	Abilene	Texas	32.4545	-99.7381
http://vivo.school.edu/individual/999003926	Palmdale	California	34.5913	-118.109
http://vivo.school.edu/individual/n7756	Archer	Florida		
